[
    {
        "name": "Szechwan Cafe",
        "location": {
            "lat": 37.426661,
            "lng": -122.144901
        },
        "address": "406 California Avenue, Palo Alto, CA 94306, United States",
        "price_level": 2
    },
    {
        "name": "Phil's Treasure Pot Restaurant",
        "location": {
            "lat": 37.453789,
            "lng": -122.184566
        },
        "address": "625 Oak Grove Avenue #B, Menlo Park, CA 94025, United States",
        "price_level": 2
    },
    {
        "name": "Chef Chu's",
        "location": {
            "lat": 37.400642,
            "lng": -122.113584
        },
        "address": "1067 North San Antonio Road, Los Altos, CA 94022, United States",
        "price_level": 2
    },
    {
        "name": "Chef Xiu Restaurant",
        "location": {
            "lat": 37.386118,
            "lng": -122.085359
        },
        "address": "855 West El Camino Real, Mountain View, CA 94040, United States",
        "price_level": 2
    },
    {
        "name": "Tai Pan",
        "location": {
            "lat": 37.446434,
            "lng": -122.15974
        },
        "address": "560 Waverley Street, Palo Alto, CA 94301, United States",
        "price_level": 2
    },
    {
        "name": "Mandarin Gourmet Cupertino",
        "location": {
            "lat": 37.324513,
            "lng": -122.032702
        },
        "address": "10145 North De Anza Boulevard, Cupertino, CA 95014, United States",
        "price_level": 2
    },
    {
        "name": "Wok's On Express - Tien Fu",
        "location": {
            "lat": 37.367982,
            "lng": -122.033598
        },
        "address": "156 West El Camino Real, Sunnyvale, CA 94087, United States",
        "price_level": 2
    },
    {
        "name": "Hangen Szechuan",
        "location": {
            "lat": 37.39473,
            "lng": -122.0788
        },
        "address": "134 Castro Street, Mountain View, CA 94041, United States",
        "price_level": 2
    },
    {
        "name": "Hong's Gourmet",
        "location": {
            "lat": 37.256976,
            "lng": -122.034124
        },
        "address": "14510 Big Basin Way #9, Saratoga, CA 95070, United States"
    },
    {
        "name": "First Wok",
        "location": {
            "lat": 37.37213,
            "lng": -122.058056
        },
        "address": "653 South Bernardo Avenue, Sunnyvale, CA 94087, United States",
        "price_level": 2
    },
    {
        "name": "Dim Sum King",
        "location": {
            "lat": 37.369209,
            "lng": -122.04224
        },
        "address": "824 West El Camino Real, Sunnyvale, CA 94087, United States",
        "price_level": 1
    },
    {
        "name": "New Chin's Restaurant",
        "location": {
            "lat": 37.485569,
            "lng": -122.226054
        },
        "address": "855 Main Street, Redwood City, CA 94063, United States",
        "price_level": 2
    },
    {
        "name": "Rickshaw Chinese Restaurant",
        "location": {
            "lat": 37.486222,
            "lng": -122.216877
        },
        "address": "1483 Broadway, Redwood City, CA 94063, United States",
        "price_level": 1
    },
    {
        "name": "Yucca de lac",
        "location": {
            "lat": 37.443237,
            "lng": -122.172475
        },
        "address": "180 El Camino Real #700, Palo Alto, CA 94304, United States"
    },
    {
        "name": "Chinese Fine Arts Gallery",
        "location": {
            "lat": 37.379199,
            "lng": -122.117891
        },
        "address": "334 State Street, Los Altos, CA 94022, United States"
    },
    {
        "name": "Hankow Cuisine 一品香",
        "location": {
            "lat": 37.307466,
            "lng": -122.032901
        },
        "address": "1071 South De Anza Boulevard, San Jose, CA 95129, United States"
    },
    {
        "name": "Bangkok Spoon",
        "location": {
            "lat": 37.393607,
            "lng": -122.077903
        },
        "address": "702 Villa Street, Mountain View, CA 94041, United States",
        "price_level": 2
    },
    {
        "name": "Dragon Garden",
        "location": {
            "lat": 37.313622,
            "lng": -122.032658
        },
        "address": "10619 South De Anza Boulevard, Cupertino, CA 95014, United States"
    },
    {
        "name": "Su Hong Eatery-Palo Alto",
        "location": {
            "lat": 37.407173,
            "lng": -122.121098
        },
        "address": "4256 El Camino Real, Palo Alto, CA 94306, United States",
        "price_level": 2
    },
    {
        "name": "Tao Tao",
        "location": {
            "lat": 37.376461,
            "lng": -122.030521
        },
        "address": "175-181 South Murphy Avenue, Sunnyvale, CA 94086, United States",
        "price_level": 2
    },
    {
        "name": "Jing-Jing Szechwan & Hunan Gourmet",
        "location": {
            "lat": 37.445076,
            "lng": -122.163186
        },
        "address": "443 Emerson Street, Palo Alto, CA 94301, United States",
        "price_level": 2
    },
    {
        "name": "China Delight",
        "location": {
            "lat": 37.444971,
            "lng": -122.162991
        },
        "address": "461 Emerson Street, Palo Alto, CA 94301, United States",
        "price_level": 1
    },
    {
        "name": "Fu Lam Mum",
        "location": {
            "lat": 37.39431,
            "lng": -122.078367
        },
        "address": "153 Castro Street, Mountain View, CA 94041, United States",
        "price_level": 2
    },
    {
        "name": "Chef Yu",
        "location": {
            "lat": 37.376728,
            "lng": -122.030356
        },
        "address": "163 South Murphy Avenue, Sunnyvale, CA 94086, United States",
        "price_level": 2
    },
    {
        "name": "Green Elephant Gourmet",
        "location": {
            "lat": 37.418595,
            "lng": -122.109161
        },
        "address": "3950 Middlefield Road, Palo Alto, CA 94303, United States",
        "price_level": 2
    },
    {
        "name": "Shiok",
        "location": {
            "lat": 37.451937,
            "lng": -122.185243
        },
        "address": "1137 Chestnut Street, Menlo Park, CA 94025, United States",
        "price_level": 2
    },
    {
        "name": "US Chinese Food",
        "location": {
            "lat": 37.47373,
            "lng": -122.218471
        },
        "address": "2490 El Camino Real, Redwood City, CA 94063, United States"
    },
    {
        "name": "Yat Sing Restaurant",
        "location": {
            "lat": 37.457868,
            "lng": -122.228937
        },
        "address": "38 Woodside Plaza, Redwood City, CA 94061, United States",
        "price_level": 2
    },
    {
        "name": "Chef Chen",
        "location": {
            "lat": 37.490257,
            "lng": -122.228939
        },
        "address": "820 Veterans Boulevard, Redwood City, CA 94063, United States",
        "price_level": 2
    },
    {
        "name": "HONG FU",
        "location": {
            "lat": 37.321947,
            "lng": -122.033881
        },
        "address": "20588 Stevens Creek Boulevard, Cupertino, CA 95014, United States",
        "price_level": 2
    },
    {
        "name": "Chinjin Eastern House Restaurant",
        "location": {
            "lat": 37.296402,
            "lng": -122.031258
        },
        "address": "1530 South De Anza Boulevard, San Jose, CA 95129, United States"
    },
    {
        "name": "China Wok",
        "location": {
            "lat": 37.354266,
            "lng": -122.050968
        },
        "address": "1211 South Mary Avenue, Sunnyvale, CA 94087, United States",
        "price_level": 2
    },
    {
        "name": "Yat Sing Restaurant",
        "location": {
            "lat": 37.478295,
            "lng": -122.186436
        },
        "address": "3770 Florence Street, Redwood City, CA 94063, United States"
    },
    {
        "name": "Crouching Tiger Restaurant",
        "location": {
            "lat": 37.486449,
            "lng": -122.234315
        },
        "address": "2644 Broadway, Redwood City, CA 94063, United States",
        "price_level": 2
    },
    {
        "name": "P.F. Chang's",
        "location": {
            "lat": 37.443708,
            "lng": -122.168165
        },
        "address": "900 Stanford Shopping Center, Palo Alto, CA 94304, United States",
        "price_level": 2
    },
    {
        "name": "R & B Seafood Restaurant",
        "location": {
            "lat": 37.426357,
            "lng": -122.147223
        },
        "address": "2209 El Camino Real, Palo Alto, CA 94306, United States"
    },
    {
        "name": "Chef Liu",
        "location": {
            "lat": 37.393425,
            "lng": -122.079453
        },
        "address": "236 Castro Street, Mountain View, CA 94041, United States",
        "price_level": 2
    },
    {
        "name": "Mandarin Roots",
        "location": {
            "lat": 37.420296,
            "lng": -122.136019
        },
        "address": "3345 El Camino Real, Palo Alto, CA 94306, United States"
    },
    {
        "name": "Wonderful Chinese Gourmet",
        "location": {
            "lat": 37.295449,
            "lng": -122.031214
        },
        "address": "1600 South De Anza Boulevard, San Jose, CA 95129, United States"
    },
    {
        "name": "Happy House",
        "location": {
            "lat": 37.307856,
            "lng": -122.031449
        },
        "address": "1072 South De Anza Boulevard b103, San Jose, CA 95129, United States"
    },
    {
        "name": "Chef Xiu",
        "location": {
            "lat": 37.386085,
            "lng": -122.085368
        },
        "address": "855 West El Camino Real, Mountain View, CA 94040, United States"
    },
    {
        "name": "Golden Palace",
        "location": {
            "lat": 37.304271,
            "lng": -122.031773
        },
        "address": "1146 South De Anza Boulevard, San Jose, CA 95129, United States"
    },
    {
        "name": "Lee's Deli",
        "location": {
            "lat": 37.479839,
            "lng": -122.176347
        },
        "address": "4200 Bohannon Drive, Menlo Park, CA 94025, United States"
    },
    {
        "name": "Catering Kitchen",
        "location": {
            "lat": 37.374999,
            "lng": -122.058071
        },
        "address": "1253 West El Camino Real, Sunnyvale, CA 94086, United States"
    },
    {
        "name": "Panda Express",
        "location": {
            "lat": 37.484974,
            "lng": -122.232154
        },
        "address": "1023 El Camino Real, Redwood City, CA 94063, United States",
        "price_level": 1
    },
    {
        "name": "China Café",
        "location": {
            "lat": 37.372023,
            "lng": -122.088468
        },
        "address": "1760 Miramonte Avenue, Mountain View, CA 94040, United States",
        "price_level": 2
    },
    {
        "name": "I Dumpling",
        "location": {
            "lat": 37.486456,
            "lng": -122.234673
        },
        "address": "2660 Broadway, Redwood City, CA 94063, United States"
    },
    {
        "name": "Restaurant Guo Cui",
        "location": {
            "lat": 37.31362,
            "lng": -122.032634
        },
        "address": "10619 South De Anza Boulevard, Cupertino, CA 95014, United States"
    },
    {
        "name": "Sichuan Chili",
        "location": {
            "lat": 37.295476,
            "lng": -122.031189
        },
        "address": "1600 South De Anza Boulevard, San Jose, CA 95129, United States"
    },
    {
        "name": "Express 7 Chinese Fast Food",
        "location": {
            "lat": 37.396641,
            "lng": -122.061576
        },
        "address": "225 East Middlefield Road, Mountain View, CA 94043, United States",
        "price_level": 2
    },
    {
        "name": "China Wok Restaurant",
        "location": {
            "lat": 37.406088,
            "lng": -122.111699
        },
        "address": "2633 California Street, Mountain View, CA 94040, United States",
        "price_level": 2
    },
    {
        "name": "Hunan Home's Restaurant",
        "location": {
            "lat": 37.398496,
            "lng": -122.109067
        },
        "address": "4880 El Camino Real, Los Altos, CA 94022, United States",
        "price_level": 2
    },
    {
        "name": "Fey Restaurant",
        "location": {
            "lat": 37.455707,
            "lng": -122.18674
        },
        "address": "1368 El Camino Real, Menlo Park, CA 94025, United States"
    },
    {
        "name": "Rojoz Gourmet Wraps",
        "location": {
            "lat": 37.419251,
            "lng": -122.109896
        },
        "address": "3906 Middlefield Road, Palo Alto, CA 94306, United States"
    },
    {
        "name": "Venus Tam Cafe",
        "location": {
            "lat": 37.336822,
            "lng": -122.040257
        },
        "address": "20956 Homestead Road, Cupertino, CA 95014, United States"
    },
    {
        "name": "Cooking Papa",
        "location": {
            "lat": 37.394532,
            "lng": -122.098196
        },
        "address": "1962 West El Camino Real, Mountain View, CA 94040, United States"
    },
    {
        "name": "Garden Fresh Chinese Vegan Cuisine",
        "location": {
            "lat": 37.387901,
            "lng": -122.089003
        },
        "address": "1245 West El Camino Real, Mountain View, CA 94040, United States",
        "price_level": 2
    },
    {
        "name": "Fortune Restaurant",
        "location": {
            "lat": 37.486451,
            "lng": -122.227051
        },
        "address": "2039 Broadway, Redwood City, CA 94063, United States",
        "price_level": 2
    },
    {
        "name": "Taiwan Taste",
        "location": {
            "lat": 37.29247,
            "lng": -122.03178
        },
        "address": "12172 Saratoga Sunnyvale Road, Saratoga, CA 95070, United States"
    },
    {
        "name": "Kirin Chinese Restaurant",
        "location": {
            "lat": 37.390315,
            "lng": -122.080835
        },
        "address": "485 Castro Street, Mountain View, CA 94041, United States",
        "price_level": 2
    },
    {
        "name": "Chef Peking",
        "location": {
            "lat": 37.494205,
            "lng": -122.23315
        },
        "address": "515 Veterans Boulevard, Redwood City, CA 94401, United States",
        "price_level": 2
    },
    {
        "name": "Bamboo Garden",
        "location": {
            "lat": 37.404242,
            "lng": -122.097953
        },
        "address": "108 North Rengstorff Avenue, Mountain View, CA 94043, United States",
        "price_level": 2
    },
    {
        "name": "Garden Fresh Chinese Vegan Cuisine",
        "location": {
            "lat": 37.445569,
            "lng": -122.162915
        },
        "address": "460 Ramona Street, Palo Alto, CA 94301, United States"
    },
    {
        "name": "Lucky Chinese Restaurant",
        "location": {
            "lat": 37.402145,
            "lng": -122.107499
        },
        "address": "530 Showers Drive #8, Mountain View, CA 94040, United States",
        "price_level": 2
    },
    {
        "name": "Hong Kong Restaurant",
        "location": {
            "lat": 37.418537,
            "lng": -122.132836
        },
        "address": "3691 El Camino Real, Palo Alto, CA 94306, United States",
        "price_level": 2
    },
    {
        "name": "Da Sichuan Restaurant",
        "location": {
            "lat": 37.417922,
            "lng": -122.131639
        },
        "address": "3781 El Camino Real, Palo Alto, CA 94306, United States",
        "price_level": 2
    },
    {
        "name": "Szechuan Garden Express",
        "location": {
            "lat": 37.337965,
            "lng": -122.042911
        },
        "address": "1677 Hollenbeck Avenue, Sunnyvale, CA 94087, United States",
        "price_level": 2
    },
    {
        "name": "Peking Duck Restaurant",
        "location": {
            "lat": 37.428453,
            "lng": -122.142756
        },
        "address": "151 California Avenue, Palo Alto, CA 94306, United States",
        "price_level": 2
    },
    {
        "name": "Shanghai Garden",
        "location": {
            "lat": 37.336837,
            "lng": -122.04021
        },
        "address": "20956 Homestead Road, Cupertino, CA 95014, United States",
        "price_level": 2
    },
    {
        "name": "Queen House",
        "location": {
            "lat": 37.392902,
            "lng": -122.079235
        },
        "address": "273 Castro Street, Mountain View, CA 94041, United States",
        "price_level": 1
    },
    {
        "name": "Jade Palace",
        "location": {
            "lat": 37.428337,
            "lng": -122.142631
        },
        "address": "151 California Avenue, Palo Alto, CA 94306, United States",
        "price_level": 2
    },
    {
        "name": "Inchin's Bamboo Garden",
        "location": {
            "lat": 37.376242,
            "lng": -122.031097
        },
        "address": "151 West Washington Avenue, Sunnyvale, CA 94087, United States"
    },
    {
        "name": "Chili Pot",
        "location": {
            "lat": 37.3368,
            "lng": -122.040331
        },
        "address": "20956 Homestead Road, Cupertino, CA 95014, United States"
    },
    {
        "name": "Su Hong to Go",
        "location": {
            "lat": 37.452287,
            "lng": -122.182586
        },
        "address": "630 Menlo Avenue, Menlo Park, CA 94025, United States",
        "price_level": 2
    },
    {
        "name": "New Orient Restaurant",
        "location": {
            "lat": 37.414115,
            "lng": -122.093242
        },
        "address": "2105 Old Middlefield Way, Mountain View, CA 94043, United States",
        "price_level": 1
    },
    {
        "name": "Great Vegi Land",
        "location": {
            "lat": 37.369497,
            "lng": -122.032208
        },
        "address": "562 South Murphy Avenue, Sunnyvale, CA 94086, United States",
        "price_level": 1
    },
    {
        "name": "Top Cafe",
        "location": {
            "lat": 37.307399,
            "lng": -122.032838
        },
        "address": "1075 South De Anza Boulevard, San Jose, CA 95129, United States",
        "price_level": 1
    },
    {
        "name": "Veggie Garden",
        "location": {
            "lat": 37.399199,
            "lng": -122.108662
        },
        "address": "Suite C, 2464 West El Camino Real, Mountain View, CA 94040, United States"
    },
    {
        "name": "Luu Noodle",
        "location": {
            "lat": 37.402961,
            "lng": -122.108467
        },
        "address": "520 Showers Drive, Mountain View, CA 94040, United States",
        "price_level": 1
    },
    {
        "name": "Panda Express",
        "location": {
            "lat": 37.322627,
            "lng": -122.041137
        },
        "address": "21000 Stevens Creek Boulevard #300, Cupertino, CA 95014, United States",
        "price_level": 1
    },
    {
        "name": "Panda Express",
        "location": {
            "lat": 37.425332,
            "lng": -122.146848
        },
        "address": "2310 El Camino Real, Palo Alto, CA 94306, United States",
        "price_level": 1
    },
    {
        "name": "Judy's Kitchen",
        "location": {
            "lat": 37.31342,
            "lng": -122.069189
        },
        "address": "10635 South Foothill Boulevard, Cupertino, CA 95014, United States"
    },
    {
        "name": "Panda Express",
        "location": {
            "lat": 37.390806,
            "lng": -122.094798
        },
        "address": "1035 El Monte Avenue, Mountain View, CA 94040, United States",
        "price_level": 1
    },
    {
        "name": "Ginger Cafe",
        "location": {
            "lat": 37.368436,
            "lng": -122.037405
        },
        "address": "398 West El Camino Real, Sunnyvale, CA 94087, United States",
        "price_level": 2
    },
    {
        "name": "Kirin Chinese Restaurant",
        "location": {
            "lat": 37.390336,
            "lng": -122.080905
        },
        "address": "485 Castro Street, Mountain View, CA 94041, United States"
    },
    {
        "name": "Amazing Wok",
        "location": {
            "lat": 37.494695,
            "lng": -122.246808
        },
        "address": "1653 - 1655 Laurel st, San Carlos, CA 94070, United States"
    },
    {
        "name": "Lucky Chinese Restaurant",
        "location": {
            "lat": 37.379632,
            "lng": -122.074309
        },
        "address": "1040 Grant Road #100, Mountain View, CA 94040, United States",
        "price_level": 2
    },
    {
        "name": "Hong Kong Bistro",
        "location": {
            "lat": 37.394368,
            "lng": -122.078319
        },
        "address": "147 Castro Street #1, Mountain View, CA 94041, United States",
        "price_level": 1
    },
    {
        "name": "Suisha House",
        "location": {
            "lat": 37.486441,
            "lng": -122.227231
        },
        "address": "2053 Broadway, Redwood City, CA 94063, United States",
        "price_level": 2
    },
    {
        "name": "Panda Express",
        "location": {
            "lat": 37.424366,
            "lng": -122.170845
        },
        "address": "459 Lagunita Drive, Stanford, CA 94305, United States",
        "price_level": 1
    },
    {
        "name": "Chef Young's",
        "location": {
            "lat": 37.388643,
            "lng": -122.029934
        },
        "address": "494 North Mathilda Avenue, Sunnyvale, CA 94085, United States"
    },
    {
        "name": "P.F. Chang's",
        "location": {
            "lat": 37.368644,
            "lng": -122.036601
        },
        "address": "390 West El Camino Real, Sunnyvale, CA 94087, United States",
        "price_level": 2
    }
]