[
    {
        "name": "Lee's Garden Chinese Restaurant",
        "location": {
            "lat": 37.966072,
            "lng": -122.343056
        },
        "address": "2300 El Portal Drive, San Pablo, CA 94806, United States"
    },
    {
        "name": "Harmony Restaurant",
        "location": {
            "lat": 37.898217,
            "lng": -122.514179
        },
        "address": "800 Redwood Highway #401, Mill Valley, CA 94941, United States",
        "price_level": 2
    },
    {
        "name": "China Village Restaurant",
        "location": {
            "lat": 37.890863,
            "lng": -122.291225
        },
        "address": "1335 Solano Avenue, Albany, CA 94706, United States",
        "price_level": 2
    },
    {
        "name": "May Lee's Chinese Restaurant",
        "location": {
            "lat": 37.881187,
            "lng": -122.525359
        },
        "address": "247 Shoreline Highway # A6, Mill Valley, CA 94941, United States",
        "price_level": 2
    },
    {
        "name": "Little Hong Kong Restaurant",
        "location": {
            "lat": 37.908939,
            "lng": -122.30738
        },
        "address": "10443 San Pablo Avenue, El Cerrito, CA 94530, United States",
        "price_level": 1
    },
    {
        "name": "China House Restaurant",
        "location": {
            "lat": 38.003964,
            "lng": -122.293821
        },
        "address": "1971 San Pablo Avenue, Pinole, CA 94564, United States",
        "price_level": 2
    },
    {
        "name": "Becky's Chinese Restaurant",
        "location": {
            "lat": 37.843677,
            "lng": -122.25143
        },
        "address": "5620 College Avenue, Oakland, CA 94618, United States",
        "price_level": 2
    },
    {
        "name": "Bamboo Hut Chinese Bistro",
        "location": {
            "lat": 37.882595,
            "lng": -122.525003
        },
        "address": "252 Almonte Boulevard, Mill Valley, CA 94941, United States"
    },
    {
        "name": "Sichuan Fusion",
        "location": {
            "lat": 37.898728,
            "lng": -122.306738
        },
        "address": "3288 Pierce St # B109, Richmond, CA 94804, United States"
    },
    {
        "name": "Restaurant Chu",
        "location": {
            "lat": 37.839551,
            "lng": -122.251111
        },
        "address": "5362 College Avenue, Oakland, CA 94618, United States",
        "price_level": 2
    },
    {
        "name": "Chrysanthemum",
        "location": {
            "lat": 37.976422,
            "lng": -122.549752
        },
        "address": "2214 4th Street, San Rafael, CA 94901, United States",
        "price_level": 2
    },
    {
        "name": "China Cafe",
        "location": {
            "lat": 38.101275,
            "lng": -122.256035
        },
        "address": "414 Georgia Street, Vallejo, CA 94590, United States",
        "price_level": 2
    },
    {
        "name": "Tommy's Asian Bistro and Grill",
        "location": {
            "lat": 37.96947,
            "lng": -122.515708
        },
        "address": "227 3rd Street, San Rafael, CA 94901, United States"
    },
    {
        "name": "Chang Luong Restaurant",
        "location": {
            "lat": 37.868026,
            "lng": -122.258248
        },
        "address": "2517 Durant Avenue, Berkeley, CA 94704, United States",
        "price_level": 2
    },
    {
        "name": "King Yen Restaurant",
        "location": {
            "lat": 37.85625,
            "lng": -122.252736
        },
        "address": "2995 College Avenue, Berkeley, CA 94705, United States",
        "price_level": 2
    },
    {
        "name": "Chen's Garden",
        "location": {
            "lat": 37.848631,
            "lng": -122.270682
        },
        "address": "1818 Alcatraz Avenue, Berkeley, CA 94703, United States",
        "price_level": 1
    },
    {
        "name": "Happy Valley Chinese Restaurant",
        "location": {
            "lat": 37.864931,
            "lng": -122.258559
        },
        "address": "2502 Telegraph Avenue, Berkeley, CA 94704, United States"
    },
    {
        "name": "Tea Fragrance House",
        "location": {
            "lat": 37.880401,
            "lng": -122.295438
        },
        "address": "1301 San Pablo Avenue, Berkeley, CA 94702, United States",
        "price_level": 1
    },
    {
        "name": "Tsing Tao",
        "location": {
            "lat": 37.93669,
            "lng": -122.325389
        },
        "address": "12372 San Pablo Avenue, Richmond, CA 94805, United States",
        "price_level": 1
    },
    {
        "name": "China Kitchen",
        "location": {
            "lat": 37.968856,
            "lng": -122.30877
        },
        "address": "4247 Appian Way, El Sobrante, CA 94803, United States"
    },
    {
        "name": "Little Mandarin",
        "location": {
            "lat": 37.870712,
            "lng": -122.267911
        },
        "address": "139 Berkeley Square, Berkeley, CA 94704, United States"
    },
    {
        "name": "Shanghai Garden Restaurant",
        "location": {
            "lat": 38.068998,
            "lng": -122.541331
        },
        "address": "471 Entrada Drive, Novato, CA 94949, United States"
    },
    {
        "name": "Happy Garden Restaurant",
        "location": {
            "lat": 38.010503,
            "lng": -122.541238
        },
        "address": "4166 Redwood Highway, San Rafael, CA 94903, United States"
    },
    {
        "name": "Oaks Corner",
        "location": {
            "lat": 37.832119,
            "lng": -122.280474
        },
        "address": "4099 San Pablo Avenue, Emeryville, CA 94608, United States"
    },
    {
        "name": "P.F. Chang's",
        "location": {
            "lat": 37.831609,
            "lng": -122.292403
        },
        "address": "5633 Bay Street, Emeryville, CA 94608, United States"
    },
    {
        "name": "Szechuan Chef",
        "location": {
            "lat": 37.986613,
            "lng": -122.588926
        },
        "address": "19 Bolinas Road, Fairfax, CA 94930, United States"
    },
    {
        "name": "Panda Express",
        "location": {
            "lat": 37.900612,
            "lng": -122.300033
        },
        "address": "5020 El Cerrito Plaza, El Cerrito, CA 94530, United States",
        "price_level": 1
    },
    {
        "name": "Tai San",
        "location": {
            "lat": 37.859059,
            "lng": -122.259026
        },
        "address": "2811 Telegraph Avenue, Berkeley, CA 94705, United States"
    },
    {
        "name": "China House",
        "location": {
            "lat": 38.10836,
            "lng": -122.573382
        },
        "address": "1222 Grant Avenue, Novato, CA 94945, United States",
        "price_level": 2
    },
    {
        "name": "Joy Cafe",
        "location": {
            "lat": 37.935506,
            "lng": -122.356046
        },
        "address": "1400 Macdonald Avenue, Richmond, CA 94801, United States"
    },
    {
        "name": "Yu Shang Mandarin Restaurant",
        "location": {
            "lat": 37.96115,
            "lng": -122.502037
        },
        "address": "180 Bellam Boulevard, San Rafael, CA 94901, United States",
        "price_level": 2
    },
    {
        "name": "Tommy's Wok Chinese Cuisine",
        "location": {
            "lat": 37.869871,
            "lng": -122.503791
        },
        "address": "3001 Bridgeway, Sausalito, CA 94965, United States",
        "price_level": 2
    },
    {
        "name": "Kirin Cuisine of Northern China",
        "location": {
            "lat": 37.891443,
            "lng": -122.280779
        },
        "address": "1767 Solano Avenue, Berkeley, CA 94707, United States",
        "price_level": 2
    },
    {
        "name": "Shen Hua",
        "location": {
            "lat": 37.857953,
            "lng": -122.2534
        },
        "address": "2914 College Avenue, Berkeley, CA 94705, United States"
    },
    {
        "name": "Chinese Express",
        "location": {
            "lat": 37.866681,
            "lng": -122.259166
        },
        "address": "2488 Channing Way, Berkeley, CA 94704, United States",
        "price_level": 1
    },
    {
        "name": "Taiwan Restaurant",
        "location": {
            "lat": 37.872315,
            "lng": -122.268982
        },
        "address": "2071 University Avenue, Berkeley, CA 94704, United States"
    },
    {
        "name": "Da Lian Restaurant",
        "location": {
            "lat": 37.877054,
            "lng": -122.269204
        },
        "address": "1674 Shattuck Avenue, Berkeley, CA 94709, United States",
        "price_level": 2
    },
    {
        "name": "Mandarin House",
        "location": {
            "lat": 37.868277,
            "lng": -122.258108
        },
        "address": "2519 Durant Avenue, Berkeley, CA 94704, United States",
        "price_level": 1
    },
    {
        "name": "King of the Roll II",
        "location": {
            "lat": 38.013121,
            "lng": -122.55943
        },
        "address": "601 Del Ganado Road, San Rafael, CA 94903, United States"
    },
    {
        "name": "Great Khan",
        "location": {
            "lat": 37.980781,
            "lng": -122.329248
        },
        "address": "2139 Hilltop Mall Road, San Pablo, CA 94806, United States"
    },
    {
        "name": "Uncle Chung's Szechuan",
        "location": {
            "lat": 37.990075,
            "lng": -122.299769
        },
        "address": "2558 Appian Way, Pinole, CA 94564, United States"
    },
    {
        "name": "Lilly's Restaurant",
        "location": {
            "lat": 37.881692,
            "lng": -122.281626
        },
        "address": "1580 Hopkins Street, Berkeley, CA 94707, United States"
    },
    {
        "name": "T C Garden Restaurant",
        "location": {
            "lat": 37.875345,
            "lng": -122.259731
        },
        "address": "2507 Hearst Avenue, Berkeley, CA 94709, United States"
    },
    {
        "name": "Panda Express",
        "location": {
            "lat": 37.932974,
            "lng": -122.329495
        },
        "address": "4250 Macdonald Avenue, Richmond, CA 94805, United States",
        "price_level": 1
    },
    {
        "name": "FENG NIAN",
        "location": {
            "lat": 37.868517,
            "lng": -122.501561
        },
        "address": "2650 Bridgeway, Sausalito, CA 94965, United States",
        "price_level": 2
    },
    {
        "name": "Renee's Place",
        "location": {
            "lat": 37.891036,
            "lng": -122.288413
        },
        "address": "1477 Solano Avenue, Albany, CA 94706, United States"
    },
    {
        "name": "Little Shin Shin",
        "location": {
            "lat": 37.828302,
            "lng": -122.24965
        },
        "address": "4258 Piedmont Avenue, Oakland, CA 94611, United States",
        "price_level": 2
    },
    {
        "name": "House of Lee",
        "location": {
            "lat": 37.972785,
            "lng": -122.52581
        },
        "address": "885 4th Street, San Rafael, CA 94901, United States",
        "price_level": 1
    },
    {
        "name": "Asian Pearl Seafood Restaurant",
        "location": {
            "lat": 37.898405,
            "lng": -122.307615
        },
        "address": "3288 Pierce Street, Suite A-118, Richmond, CA 94804, United States",
        "price_level": 2
    },
    {
        "name": "Willow Garden Chinese Restaurant",
        "location": {
            "lat": 38.020678,
            "lng": -122.261805
        },
        "address": "844 Willow Avenue, Hercules, CA 94547, United States"
    },
    {
        "name": "China Hut",
        "location": {
            "lat": 37.82799,
            "lng": -122.256743
        },
        "address": "4021 Broadway, Oakland, CA 94611, United States",
        "price_level": 1
    },
    {
        "name": "Amazing Kitchen",
        "location": {
            "lat": 37.960344,
            "lng": -122.343071
        },
        "address": "13993 San Pablo Avenue, San Pablo, CA 94806, United States"
    },
    {
        "name": "East Bay Saigon Seafood Harbor Restaurant",
        "location": {
            "lat": 37.900462,
            "lng": -122.308906
        },
        "address": "3150 Pierce Street, Richmond, CA 94804, United States",
        "price_level": 2
    },
    {
        "name": "Panda Express",
        "location": {
            "lat": 38.104462,
            "lng": -122.572114
        },
        "address": "975 Diablo Avenue, Novato, CA 94947, United States",
        "price_level": 1
    },
    {
        "name": "King Dong Restaurant",
        "location": {
            "lat": 37.865254,
            "lng": -122.267174
        },
        "address": "2429 Shattuck Avenue, Berkeley, CA 94704, United States",
        "price_level": 1
    },
    {
        "name": "Mandarin Garden Restaurant",
        "location": {
            "lat": 37.871686,
            "lng": -122.267436
        },
        "address": "2025 Shattuck Square, Berkeley, CA 94704, United States",
        "price_level": 2
    },
    {
        "name": "Happy Wok",
        "location": {
            "lat": 38.028556,
            "lng": -122.265092
        },
        "address": "677 Parker Avenue, Rodeo, CA 94572, United States",
        "price_level": 1
    },
    {
        "name": "Chinese American Art Craft",
        "location": {
            "lat": 37.905325,
            "lng": -122.304467
        },
        "address": "10256 San Pablo Avenue, El Cerrito, CA 94530, United States"
    },
    {
        "name": "Ping's Mandarin Restaurant",
        "location": {
            "lat": 37.960879,
            "lng": -122.510502
        },
        "address": "817 Francisco Boulevard West, San Rafael, CA 94901, United States",
        "price_level": 1
    },
    {
        "name": "Panda Express",
        "location": {
            "lat": 37.991233,
            "lng": -122.306471
        },
        "address": "1473 Fitzgerald Drive, Pinole, CA 94564, United States",
        "price_level": 1
    },
    {
        "name": "Combo King",
        "location": {
            "lat": 38.00302,
            "lng": -122.544269
        },
        "address": "5800 Northgate Drive, San Rafael, CA 94903, United States"
    },
    {
        "name": "China Wok",
        "location": {
            "lat": 37.925396,
            "lng": -122.33959
        },
        "address": "3047 Cutting Boulevard, Richmond, CA 94804, United States"
    },
    {
        "name": "Osmanthus",
        "location": {
            "lat": 37.849105,
            "lng": -122.251969
        },
        "address": "6048 College Avenue, Oakland, CA 94618, United States",
        "price_level": 2
    },
    {
        "name": "D J Chinese Cuisine",
        "location": {
            "lat": 37.934888,
            "lng": -122.535707
        },
        "address": "435 Magnolia Avenue, Larkspur, CA 94939, United States"
    },
    {
        "name": "Panda Express",
        "location": {
            "lat": 37.871841,
            "lng": -122.509165
        },
        "address": "100 Donahue Street, Sausalito, CA 94965, United States",
        "price_level": 1
    },
    {
        "name": "Hong Kong East Ocean Seafood Restaurant",
        "location": {
            "lat": 37.837445,
            "lng": -122.314807
        },
        "address": "3199 Powell Street, Emeryville, CA 94608, United States",
        "price_level": 2
    },
    {
        "name": "Chef Ming Chinese Food To Go",
        "location": {
            "lat": 37.935664,
            "lng": -122.359642
        },
        "address": "1190 Macdonald Avenue, Richmond, CA 94801, United States"
    },
    {
        "name": "Hot Wok Chinese Food",
        "location": {
            "lat": 37.98134,
            "lng": -122.565913
        },
        "address": "898 Sir Francis Drake Boulevard, San Anselmo, CA 94960, United States"
    },
    {
        "name": "Chef Yu's Restaurant",
        "location": {
            "lat": 37.828879,
            "lng": -122.264793
        },
        "address": "3919 Telegraph Avenue, Oakland, CA 94609, United States"
    },
    {
        "name": "Ancient Szechuan",
        "location": {
            "lat": 37.911981,
            "lng": -122.309377
        },
        "address": "10675 San Pablo Avenue, El Cerrito, CA 94530, United States"
    },
    {
        "name": "Green Bamboo Chinese",
        "location": {
            "lat": 38.069103,
            "lng": -122.540932
        },
        "address": "471 Entrada Drive, Novato, CA 94949, United States"
    },
    {
        "name": "Panda Express",
        "location": {
            "lat": 38.003961,
            "lng": -122.544304
        },
        "address": "5800 Northgate Drive, San Rafael, CA 94903, United States",
        "price_level": 1
    },
    {
        "name": "Yet Wah Restaurant",
        "location": {
            "lat": 37.973374,
            "lng": -122.530427
        },
        "address": "1238 4th Street, San Rafael, CA 94901, United States",
        "price_level": 2
    },
    {
        "name": "Sun Hong Kong",
        "location": {
            "lat": 37.867891,
            "lng": -122.259541
        },
        "address": "2439 Durant Avenue, Berkeley, CA 94704, United States",
        "price_level": 1
    },
    {
        "name": "Long Life Vegi House",
        "location": {
            "lat": 37.872489,
            "lng": -122.26745
        },
        "address": "2129 University Avenue, Berkeley, CA 94704, United States",
        "price_level": 1
    },
    {
        "name": "168 Restaurant",
        "location": {
            "lat": 37.899239,
            "lng": -122.307664
        },
        "address": "Suite A109, 3288 Pierce Street, Richmond, CA 94804, United States",
        "price_level": 2
    },
    {
        "name": "Gou Bu Li",
        "location": {
            "lat": 37.961576,
            "lng": -122.324915
        },
        "address": "3340 San Pablo Dam Road, San Pablo, CA 94803, United States"
    },
    {
        "name": "Asian Harbor",
        "location": {
            "lat": 37.903614,
            "lng": -122.303783
        },
        "address": "10168 San Pablo Avenue, El Cerrito, CA 94530, United States",
        "price_level": 2
    },
    {
        "name": "Red Pepper Restaurant",
        "location": {
            "lat": 37.925578,
            "lng": -122.384616
        },
        "address": "130 Railroad Avenue, Richmond, CA 94801, United States"
    },
    {
        "name": "King Tsin Restaurant",
        "location": {
            "lat": 37.891407,
            "lng": -122.282556
        },
        "address": "1699 Solano Avenue, Berkeley, CA 94707, United States",
        "price_level": 2
    },
    {
        "name": "Noodle Theory",
        "location": {
            "lat": 37.849296,
            "lng": -122.252536
        },
        "address": "6099 Claremont Avenue, Oakland, CA 94618, United States",
        "price_level": 2
    },
    {
        "name": "Szechuan Chinese Cuisine",
        "location": {
            "lat": 38.104916,
            "lng": -122.231031
        },
        "address": "2079 Solano Avenue, Vallejo, CA 94590, United States"
    },
    {
        "name": "Daimo Chinese Restaurant",
        "location": {
            "lat": 37.899282,
            "lng": -122.308499
        },
        "address": "3288 Pierce Street, Richmond, CA 94804, United States",
        "price_level": 2
    },
    {
        "name": "Jennie Low's Chinese Cuisine",
        "location": {
            "lat": 38.090931,
            "lng": -122.553822
        },
        "address": "120 Vintage Way, Novato, CA 94945, United States",
        "price_level": 1
    },
    {
        "name": "P.F. Chang's",
        "location": {
            "lat": 37.92608,
            "lng": -122.516647
        },
        "address": "301 Corte Madera Town Center, Corte Madera, CA 94925, United States",
        "price_level": 2
    },
    {
        "name": "L & L Chinese Seafood Restaurant",
        "location": {
            "lat": 37.90306,
            "lng": -122.303438
        },
        "address": "10140 San Pablo Avenue, El Cerrito, CA 94530, United States",
        "price_level": 2
    },
    {
        "name": "China Express Restaurant",
        "location": {
            "lat": 37.957773,
            "lng": -122.347453
        },
        "address": "1841 23rd Street, San Pablo, CA 94806, United States",
        "price_level": 2
    },
    {
        "name": "Chef's Chinese Food",
        "location": {
            "lat": 37.964832,
            "lng": -122.316086
        },
        "address": "3741 San Pablo Dam Road, El Sobrante, CA 94803, United States"
    },
    {
        "name": "Uncle Wong's",
        "location": {
            "lat": 37.927535,
            "lng": -122.319406
        },
        "address": "11760 San Pablo Avenue, El Cerrito, CA 94530, United States"
    },
    {
        "name": "Chefs Chinese Food",
        "location": {
            "lat": 37.899021,
            "lng": -122.299246
        },
        "address": "233 El Cerrito Plaza, El Cerrito, CA 94530, United States"
    },
    {
        "name": "China Delights",
        "location": {
            "lat": 37.994541,
            "lng": -122.302947
        },
        "address": "1501 Tara Hills Drive, Pinole, CA 94564, United States",
        "price_level": 1
    },
    {
        "name": "Peking Wok Restaurant",
        "location": {
            "lat": 38.004473,
            "lng": -122.540876
        },
        "address": "418 Las Gallinas Avenue, San Rafael, CA 94903, United States"
    },
    {
        "name": "Empire Buffet",
        "location": {
            "lat": 37.955869,
            "lng": -122.331849
        },
        "address": "700 San Pablo Towne Center, San Pablo, CA 94806, United States",
        "price_level": 1
    },
    {
        "name": "Little Mandarin",
        "location": {
            "lat": 37.971332,
            "lng": -122.520364
        },
        "address": "538 3rd Street, San Rafael, CA 94901, United States"
    },
    {
        "name": "Yuet Foo Seafood Restaurant",
        "location": {
            "lat": 37.907188,
            "lng": -122.305357
        },
        "address": "10350 San Pablo Avenue, El Cerrito, CA 94530, United States"
    },
    {
        "name": "Lucky Garden Express",
        "location": {
            "lat": 37.955484,
            "lng": -122.336406
        },
        "address": "13501 San Pablo Avenue, San Pablo, CA 94806, United States"
    },
    {
        "name": "Yet Wah Chinese Kitchen",
        "location": {
            "lat": 37.963424,
            "lng": -122.509427
        },
        "address": "26 Medway Road, San Rafael, CA 94901, United States"
    },
    {
        "name": "Kwang Tung Restaurant",
        "location": {
            "lat": 37.9321,
            "lng": -122.322966
        },
        "address": "12056 San Pablo Avenue, Richmond, CA 94805, United States"
    },
    {
        "name": "Great China",
        "location": {
            "lat": 37.867656,
            "lng": -122.266178
        },
        "address": "2190 Bancroft Way, Berkeley, CA 94704, United States"
    },
    {
        "name": "Hunan Villa",
        "location": {
            "lat": 38.003812,
            "lng": -122.314249
        },
        "address": "632 San Pablo Avenue, Pinole, CA 94564, United States",
        "price_level": 2
    },
    {
        "name": "Little Hunan",
        "location": {
            "lat": 37.870873,
            "lng": -122.267939
        },
        "address": "125 Berkeley Way, Berkeley, CA 94704, United States"
    },
    {
        "name": "Happy Golden Bowl",
        "location": {
            "lat": 37.911978,
            "lng": -122.309335
        },
        "address": "10675 San Pablo Avenue, El Cerrito, CA CA, United States"
    },
    {
        "name": "Hunan First Restaurant",
        "location": {
            "lat": 37.946537,
            "lng": -122.52558
        },
        "address": "140 Bon Air Center, Greenbrae, CA 94904, United States"
    },
    {
        "name": "Gourmet Choice One",
        "location": {
            "lat": 37.920173,
            "lng": -122.345902
        },
        "address": "850 Marina Bay Parkway, Richmond, CA 94804, United States"
    },
    {
        "name": "Dragon Terrace",
        "location": {
            "lat": 38.00996,
            "lng": -122.270414
        },
        "address": "1581 Sycamore Avenue #1, Hercules, CA 94547, United States"
    },
    {
        "name": "The Pearl House",
        "location": {
            "lat": 37.891518,
            "lng": -122.299108
        },
        "address": "809 San Pablo Avenue, Albany, CA 94706, United States",
        "price_level": 1
    },
    {
        "name": "New Ho Ho Restaurant",
        "location": {
            "lat": 37.83541,
            "lng": -122.262985
        },
        "address": "4871 Telegraph Avenue, Oakland, CA 94609, United States"
    },
    {
        "name": "Panda Express",
        "location": {
            "lat": 37.830754,
            "lng": -122.280264
        },
        "address": "1151 40th Street, Emeryville, CA 94608, United States",
        "price_level": 1
    },
    {
        "name": "Lam's Kitchen",
        "location": {
            "lat": 37.905971,
            "lng": -122.544808
        },
        "address": "89 East Blithedale Avenue, Mill Valley, CA 94941, United States"
    },
    {
        "name": "Hong Kong Restaurant",
        "location": {
            "lat": 37.87137,
            "lng": -122.268061
        },
        "address": "91 Shattuck Square, Berkeley, CA 94704, United States"
    },
    {
        "name": "Lily Kai",
        "location": {
            "lat": 37.873903,
            "lng": -122.455121
        },
        "address": "1881 Tiburon Boulevard, Tiburon, CA 94920, United States"
    },
    {
        "name": "Rickshaw Chinese Restaurant",
        "location": {
            "lat": 37.991222,
            "lng": -122.301353
        },
        "address": "1560 Fitzgerald Drive, Pinole, CA 94564, United States",
        "price_level": 1
    },
    {
        "name": "China Villa",
        "location": {
            "lat": 37.976102,
            "lng": -122.561465
        },
        "address": "340 Sir Francis Drake Boulevard, San Anselmo, CA 94960, United States",
        "price_level": 1
    },
    {
        "name": "China Palace",
        "location": {
            "lat": 38.099494,
            "lng": -122.567794
        },
        "address": "7089 Redwood Boulevard, Novato, CA 94945, United States",
        "price_level": 2
    },
    {
        "name": "Great Wall Chinese Restaurant",
        "location": {
            "lat": 37.850079,
            "lng": -122.252555
        },
        "address": "6247 College Avenue, Oakland, CA 94618, United States",
        "price_level": 2
    },
    {
        "name": "China Wok",
        "location": {
            "lat": 37.925373,
            "lng": -122.339646
        },
        "address": "3047 Cutting Boulevard, Richmond, CA 94804, United States",
        "price_level": 2
    },
    {
        "name": "Uncle Wing's Restaurant",
        "location": {
            "lat": 37.972558,
            "lng": -122.529707
        },
        "address": "905 B Street, San Rafael, CA 94901, United States"
    },
    {
        "name": "Imperial Tea Court",
        "location": {
            "lat": 37.879856,
            "lng": -122.26898
        },
        "address": "1511 Shattuck Avenue, Berkeley, CA 94709, United States"
    },
    {
        "name": "China Wok",
        "location": {
            "lat": 38.101573,
            "lng": -122.258071
        },
        "address": "512 Sacramento Street, Vallejo, CA 94590, United States",
        "price_level": 2
    },
    {
        "name": "Ming's Restaurant",
        "location": {
            "lat": 37.875218,
            "lng": -122.460081
        },
        "address": "1550 Tiburon Boulevard, Belvedere Tiburon, CA 94920, United States"
    },
    {
        "name": "Golden Star Cafe",
        "location": {
            "lat": 37.935506,
            "lng": -122.356046
        },
        "address": "1400 Macdonald Avenue, Richmond, CA 94801, United States"
    },
    {
        "name": "China Express",
        "location": {
            "lat": 38.098261,
            "lng": -122.570326
        },
        "address": "1543 South Novato Boulevard, Novato, CA 94947, United States",
        "price_level": 2
    },
    {
        "name": "Ming Yen",
        "location": {
            "lat": 38.109224,
            "lng": -122.578041
        },
        "address": "1628 Grant Avenue, Novato, CA 94945, United States"
    },
    {
        "name": "Ichiban Sushi",
        "location": {
            "lat": 37.871788,
            "lng": -122.267515
        },
        "address": "2017 Shattuck Avenue, Berkeley, CA 94704, United States",
        "price_level": 2
    },
    {
        "name": "New China Barn",
        "location": {
            "lat": 38.102686,
            "lng": -122.238084
        },
        "address": "320 Tuolumne Street, Vallejo, CA 94590, United States"
    },
    {
        "name": "Ping's",
        "location": {
            "lat": 38.007231,
            "lng": -122.545948
        },
        "address": "248 Northgate Drive, San Rafael, CA 94903, United States"
    },
    {
        "name": "Kwongnan Restaurant",
        "location": {
            "lat": 38.099919,
            "lng": -122.256375
        },
        "address": "405 York Street, Vallejo, CA 94590, United States"
    },
    {
        "name": "Golden Grain Restaurant Inc",
        "location": {
            "lat": 37.889553,
            "lng": -122.298401
        },
        "address": "917 San Pablo Avenue, Albany, CA 94706, United States"
    }
]