[
    {
        "name": "Chinese Gourmet Express",
        "location": {
            "lat": 37.325279,
            "lng": -121.81465
        },
        "address": "2200 Eastridge Mall, San Jose, CA 95122, United States"
    },
    {
        "name": "Great Wall Restaurant",
        "location": {
            "lat": 37.306094,
            "lng": -121.891268
        },
        "address": "1455 Bird Avenue, San Jose, CA 95125, United States",
        "price_level": 2
    },
    {
        "name": "China Station Restaurant",
        "location": {
            "lat": 37.27782,
            "lng": -121.833019
        },
        "address": "80 Senter Road, San Jose, CA 95111, United States",
        "price_level": 2
    },
    {
        "name": "Hunan Taste Restaurant",
        "location": {
            "lat": 37.356671,
            "lng": -121.901188
        },
        "address": "998 North 4th Street, San Jose, CA 95112, United States",
        "price_level": 1
    },
    {
        "name": "Dynasty Restaurant",
        "location": {
            "lat": 37.332398,
            "lng": -121.85633
        },
        "address": "1001 Story Road #200, San Jose, CA 95122, United States",
        "price_level": 2
    },
    {
        "name": "Sun-Ly Chinese Restaurant",
        "location": {
            "lat": 37.315061,
            "lng": -121.837988
        },
        "address": "1075 Tully Road, San Jose, CA 95122, United States"
    },
    {
        "name": "New Chef Lee Chinese Restaurant",
        "location": {
            "lat": 37.404173,
            "lng": -121.995196
        },
        "address": "1115 Tasman Drive, Sunnyvale, CA 95014, United States",
        "price_level": 2
    },
    {
        "name": "Chef Ming's Chinese Restaurant",
        "location": {
            "lat": 37.339385,
            "lng": -121.938493
        },
        "address": "61 Washington Street, Santa Clara, CA 95050, United States",
        "price_level": 2
    },
    {
        "name": "Yeung Shing Restaurant",
        "location": {
            "lat": 37.262192,
            "lng": -121.962685
        },
        "address": "14107 South Winchester Boulevard, Los Gatos, CA 95032, United States",
        "price_level": 2
    },
    {
        "name": "Pot Sticker King",
        "location": {
            "lat": 37.322253,
            "lng": -122.017634
        },
        "address": "19634 Stevens Creek Boulevard, Cupertino, CA 95014, United States",
        "price_level": 2
    },
    {
        "name": "Cooking Papa",
        "location": {
            "lat": 37.337782,
            "lng": -121.977766
        },
        "address": "2830 Homestead Road, Santa Clara, CA 95051, United States",
        "price_level": 2
    },
    {
        "name": "Ume Chinese Fast Food",
        "location": {
            "lat": 37.385147,
            "lng": -121.928359
        },
        "address": "2595 North 1st Street, San Jose, CA 95131, United States",
        "price_level": 1
    },
    {
        "name": "Phu Lam Chinese Restaurant",
        "location": {
            "lat": 37.354501,
            "lng": -121.818921
        },
        "address": "3082 Story Road, San Jose, CA 95127-3934, United States"
    },
    {
        "name": "Shangri-La Chinese Restaurant",
        "location": {
            "lat": 37.234269,
            "lng": -121.961349
        },
        "address": "798 Blossom Hill Road, Los Gatos, CA 95032, United States",
        "price_level": 2
    },
    {
        "name": "Jade Gardens Chinese Restaurant",
        "location": {
            "lat": 37.380471,
            "lng": -121.827644
        },
        "address": "3479 McKee Road, San Jose, CA 95127, United States"
    },
    {
        "name": "Grand Fortune Seafood Restaurant",
        "location": {
            "lat": 37.278706,
            "lng": -121.835646
        },
        "address": "4100 Monterey Street, San Jose, CA 95111, United States",
        "price_level": 2
    },
    {
        "name": "Lee's House",
        "location": {
            "lat": 37.236246,
            "lng": -121.80467
        },
        "address": "6187 Santa Teresa Boulevard, San Jose, CA 95123, United States"
    },
    {
        "name": "Chef Ko",
        "location": {
            "lat": 37.293733,
            "lng": -121.964867
        },
        "address": "876 West Hamilton Avenue, Campbell, CA 95008, United States"
    },
    {
        "name": "China Palace",
        "location": {
            "lat": 37.419201,
            "lng": -121.915819
        },
        "address": "688 Barber Lane, Milpitas, CA 95035, United States",
        "price_level": 2
    },
    {
        "name": "Mosaic Restaurant",
        "location": {
            "lat": 37.332154,
            "lng": -121.888049
        },
        "address": "211 S 1st St, San Jose, CA 95113, United States",
        "price_level": 3
    },
    {
        "name": "New Tung kee Noodle House",
        "location": {
            "lat": 37.338167,
            "lng": -121.884656
        },
        "address": "262 East Santa Clara Street, San Jose, CA 95113, United States",
        "price_level": 1
    },
    {
        "name": "Hot Pot City",
        "location": {
            "lat": 37.420973,
            "lng": -121.915942
        },
        "address": "500 Barber Lane, Milpitas, CA 95035, United States",
        "price_level": 2
    },
    {
        "name": "Tai Pan",
        "location": {
            "lat": 37.300563,
            "lng": -121.824023
        },
        "address": "1031 East Capitol Expressway, San Jose, CA 95121, United States"
    },
    {
        "name": "Melin House Chinese Restaurant",
        "location": {
            "lat": 37.454987,
            "lng": -121.910553
        },
        "address": "1708 North Milpitas Boulevard, Milpitas, CA 95035, United States"
    },
    {
        "name": "TK Noodle",
        "location": {
            "lat": 37.322187,
            "lng": -121.82328
        },
        "address": "1818 Tully Road, San Jose, CA 95122, United States"
    },
    {
        "name": "Tong Soon Garden Restaurant",
        "location": {
            "lat": 37.352161,
            "lng": -121.985821
        },
        "address": "3240 El Camino Real, Santa Clara, CA 95051, United States",
        "price_level": 2
    },
    {
        "name": "King Eggroll",
        "location": {
            "lat": 37.333706,
            "lng": -121.852903
        },
        "address": "1221 Story Road #10, San Jose, CA 95122, United States",
        "price_level": 1
    },
    {
        "name": "Famous Food Restaurant",
        "location": {
            "lat": 37.366228,
            "lng": -122.016213
        },
        "address": "872 Old San Francisco Road, Sunnyvale, CA 94086, United States"
    },
    {
        "name": "Nutrition House Inc",
        "location": {
            "lat": 37.421065,
            "lng": -121.916093
        },
        "address": "496 Barber Lane, Milpitas, CA 95035, United States",
        "price_level": 2
    },
    {
        "name": "The Porridge",
        "location": {
            "lat": 37.455623,
            "lng": -121.909913
        },
        "address": "1706 North Milpitas Boulevard, Milpitas, CA 95035, United States"
    },
    {
        "name": "Won Kee Seafood Restaurant",
        "location": {
            "lat": 37.423441,
            "lng": -121.918601
        },
        "address": "206 Barber Court, Milpitas, CA 95035, United States",
        "price_level": 2
    },
    {
        "name": "Ming Tasty",
        "location": {
            "lat": 37.396992,
            "lng": -121.997059
        },
        "address": "1129 North Lawrence Expressway, Sunnyvale, CA 94089, United States"
    },
    {
        "name": "Golden Garden Restaurant",
        "location": {
            "lat": 37.244636,
            "lng": -121.889567
        },
        "address": "1375 Blossom Hill Road Ste 12, San Jose, CA 95118, United States",
        "price_level": 2
    },
    {
        "name": "TK Noodle",
        "location": {
            "lat": 37.333906,
            "lng": -121.855932
        },
        "address": "975 McLaughlin Avenue, San Jose, CA 95122, United States",
        "price_level": 1
    },
    {
        "name": "Little Chef Chinese Fast Food",
        "location": {
            "lat": 37.29743,
            "lng": -121.949588
        },
        "address": "1462 South Winchester Boulevard, San Jose, CA 95128, United States"
    },
    {
        "name": "T K Noodle Inc",
        "location": {
            "lat": 37.372122,
            "lng": -121.842774
        },
        "address": "336 North Capitol Avenue, San Jose, CA 95133, United States",
        "price_level": 1
    },
    {
        "name": "Perfect Chinese Food",
        "location": {
            "lat": 37.420615,
            "lng": -121.916965
        },
        "address": "550 Barber Lane, Milpitas, CA 95035, United States"
    },
    {
        "name": "Panda Express",
        "location": {
            "lat": 37.333287,
            "lng": -121.900854
        },
        "address": "525 West Santa Clara Street, San Jose, CA 95113, United States",
        "price_level": 1
    },
    {
        "name": "Blue Sky Chinese Restaurant",
        "location": {
            "lat": 37.286564,
            "lng": -121.949578
        },
        "address": "2028 Winchester Boulevard, Campbell, CA 95008, United States",
        "price_level": 2
    },
    {
        "name": "China Way Restaurant",
        "location": {
            "lat": 37.352655,
            "lng": -121.991794
        },
        "address": "3475 El Camino Real, Santa Clara, CA 95051, United States"
    },
    {
        "name": "Taiwan Restaurant",
        "location": {
            "lat": 37.304965,
            "lng": -121.898126
        },
        "address": "1306 Lincoln Avenue, San Jose, CA 95125, United States",
        "price_level": 2
    },
    {
        "name": "Jade China Restaurant",
        "location": {
            "lat": 37.387274,
            "lng": -121.858254
        },
        "address": "2524 Berryessa Road, San Jose, CA 95132, United States",
        "price_level": 1
    },
    {
        "name": "China Delight Restaurant",
        "location": {
            "lat": 37.339586,
            "lng": -121.972183
        },
        "address": "2596 Homestead Road, Santa Clara, CA 95051, United States",
        "price_level": 1
    },
    {
        "name": "Bo Town",
        "location": {
            "lat": 37.330239,
            "lng": -121.884967
        },
        "address": "409 South Second Street, San Jose, CA 95113, United States",
        "price_level": 2
    },
    {
        "name": "Edna Ray Chinese Restaurant",
        "location": {
            "lat": 37.306937,
            "lng": -121.900352
        },
        "address": "1181 Lincoln Avenue, San Jose, CA 95125, United States",
        "price_level": 2
    },
    {
        "name": "#1 Chinese Kitchen",
        "location": {
            "lat": 37.252191,
            "lng": -121.831377
        },
        "address": "5585 Snell Avenue, San Jose, CA 95123, United States",
        "price_level": 2
    },
    {
        "name": "Yen Ching Chinese Food",
        "location": {
            "lat": 37.283447,
            "lng": -121.833624
        },
        "address": "3855 Seven Trees Boulevard, San Jose, CA 95111, United States"
    },
    {
        "name": "Chili Palace",
        "location": {
            "lat": 37.429062,
            "lng": -121.911032
        },
        "address": "177 West Calaveras Boulevard, Milpitas, CA 95035, United States",
        "price_level": 2
    },
    {
        "name": "Tea Garden Chinese Kitchen",
        "location": {
            "lat": 37.235286,
            "lng": -121.913475
        },
        "address": "14030 Blossom Hill Road, Los Gatos, CA 95032, United States"
    },
    {
        "name": "China Delight",
        "location": {
            "lat": 37.245528,
            "lng": -121.804912
        },
        "address": "5813 Cottle Road, San Jose, CA 95123, United States",
        "price_level": 1
    },
    {
        "name": "King Wah Chinese Restaurant",
        "location": {
            "lat": 37.375788,
            "lng": -122.028632
        },
        "address": "219 East Washington Avenue, Sunnyvale, CA 94086, United States",
        "price_level": 1
    },
    {
        "name": "Shanghai Ding Sheng Restaurant",
        "location": {
            "lat": 37.419228,
            "lng": -121.915753
        },
        "address": "686 Barber Lane, Milpitas, CA 95035, United States",
        "price_level": 2
    },
    {
        "name": "Hong Kong Garden Restaurant",
        "location": {
            "lat": 37.249432,
            "lng": -121.831821
        },
        "address": "5665 Snell Avenue, San Jose, CA 95123, United States",
        "price_level": 1
    },
    {
        "name": "Gobi Mongolian BBQ",
        "location": {
            "lat": 37.403868,
            "lng": -121.99472
        },
        "address": "1135 Tasman Drive, Sunnyvale, CA 94089, United States"
    },
    {
        "name": "New Port Restaurant",
        "location": {
            "lat": 37.338498,
            "lng": -122.013904
        },
        "address": "1686 South Wolfe Road, Sunnyvale, CA 94087, United States"
    },
    {
        "name": "Pho Marina",
        "location": {
            "lat": 37.279002,
            "lng": -121.835158
        },
        "address": "4116 Monterey Highway, San Jose, CA 95111, United States"
    },
    {
        "name": "Wonder Wok",
        "location": {
            "lat": 37.403677,
            "lng": -121.880021
        },
        "address": "2678 Cropley Avenue, San Jose, CA 95132, United States"
    },
    {
        "name": "Shanghai Delight Inc",
        "location": {
            "lat": 37.423348,
            "lng": -121.918618
        },
        "address": "218 Barber Court, Milpitas, CA 95035, United States",
        "price_level": 2
    },
    {
        "name": "Panda Express",
        "location": {
            "lat": 37.252621,
            "lng": -121.86173
        },
        "address": "925 Blossom Hill Road, San Jose, CA 95123, United States",
        "price_level": 1
    },
    {
        "name": "Mama Chef",
        "location": {
            "lat": 37.323525,
            "lng": -121.992182
        },
        "address": "5075 Stevens Creek Boulevard Suite 10, Santa Clara, CA 95051, United States"
    },
    {
        "name": "Taichi Pot",
        "location": {
            "lat": 37.338779,
            "lng": -121.973201
        },
        "address": "2640 Homestead Road, Santa Clara, CA 95051, United States"
    },
    {
        "name": "Top Cafe Inc",
        "location": {
            "lat": 37.457533,
            "lng": -121.910245
        },
        "address": "50 Dixon Road, Milpitas, CA 95035, United States"
    },
    {
        "name": "Rice + Noodles Asian Kitchen",
        "location": {
            "lat": 37.293904,
            "lng": -121.965886
        },
        "address": "930 West Hamilton Avenue, Campbell, CA 95008, United States",
        "price_level": 1
    },
    {
        "name": "Lee's Kitchen",
        "location": {
            "lat": 37.352535,
            "lng": -121.97234
        },
        "address": "2767 El Camino Real, Santa Clara, CA 95051, United States",
        "price_level": 1
    },
    {
        "name": "Panda Express",
        "location": {
            "lat": 37.340166,
            "lng": -121.842209
        },
        "address": "1720 Story Road #40, San Jose, CA 95122, United States",
        "price_level": 1
    },
    {
        "name": "Wing's Chinese Restaurant",
        "location": {
            "lat": 37.348436,
            "lng": -121.895838
        },
        "address": "131 Jackson Street, San Jose, CA 95112, United States",
        "price_level": 2
    },
    {
        "name": "China Garden Restaurant",
        "location": {
            "lat": 37.323171,
            "lng": -121.928365
        },
        "address": "1890 West San Carlos Street, San Jose, CA 95128, United States",
        "price_level": 1
    },
    {
        "name": "456 Chinese Restaurant",
        "location": {
            "lat": 37.329587,
            "lng": -121.962421
        },
        "address": "2362 Pruneridge Avenue, Santa Clara, CA 95050, United States",
        "price_level": 2
    },
    {
        "name": "Panda Express",
        "location": {
            "lat": 37.331192,
            "lng": -121.810846
        },
        "address": "2980 East Capitol Expressway, San Jose, CA 95148, United States",
        "price_level": 1
    },
    {
        "name": "Sweet Mango",
        "location": {
            "lat": 37.308865,
            "lng": -121.899575
        },
        "address": "1040 Willow Street, San Jose, CA 95125, United States"
    },
    {
        "name": "Hana",
        "location": {
            "lat": 37.315313,
            "lng": -121.978032
        },
        "address": "4320 Moorpark Avenue, San Jose, CA 95129, United States",
        "price_level": 1
    },
    {
        "name": "Pho Viet",
        "location": {
            "lat": 37.370822,
            "lng": -121.916918
        },
        "address": "1751 North 1st Street #60, San Jose, CA 95112, United States",
        "price_level": 2
    },
    {
        "name": "Shanghai Dumpling",
        "location": {
            "lat": 37.310532,
            "lng": -122.024431
        },
        "address": "10895 South Blaney Avenue, Cupertino, CA 95014, United States",
        "price_level": 2
    },
    {
        "name": "Xinh Xinh Cafe",
        "location": {
            "lat": 37.31496,
            "lng": -121.838113
        },
        "address": "1075 Tully Road, San Jose, CA 95122, United States"
    },
    {
        "name": "Ming's Garden",
        "location": {
            "lat": 37.275325,
            "lng": -121.892802
        },
        "address": "1431 Foxworthy Avenue, San Jose, CA 95118, United States"
    },
    {
        "name": "Shanghai Flavor Shop",
        "location": {
            "lat": 37.366249,
            "lng": -122.015838
        },
        "address": "888 Old San Francisco Road, Sunnyvale, CA 94086, United States",
        "price_level": 1
    },
    {
        "name": "Asia Village",
        "location": {
            "lat": 37.365442,
            "lng": -122.015028
        },
        "address": "747 South Wolfe Road, Sunnyvale, CA 94086, United States"
    },
    {
        "name": "New China Foods",
        "location": {
            "lat": 37.456575,
            "lng": -121.910269
        },
        "address": "1836 North Milpitas Boulevard, Milpitas, CA 95035, United States"
    },
    {
        "name": "Ma Ma Chen's Kitchen",
        "location": {
            "lat": 37.322667,
            "lng": -122.005687
        },
        "address": "19052 Stevens Creek Boulevard, Cupertino, CA 95014, United States",
        "price_level": 2
    },
    {
        "name": "T K Noodle",
        "location": {
            "lat": 37.278824,
            "lng": -121.834658
        },
        "address": "4068 Monterey Highway, San Jose, CA 95111, United States",
        "price_level": 1
    },
    {
        "name": "Panda Express",
        "location": {
            "lat": 37.340487,
            "lng": -121.906425
        },
        "address": "567 Coleman Avenue, San Jose, CA 95110, United States",
        "price_level": 1
    },
    {
        "name": "Panda Express",
        "location": {
            "lat": 37.290686,
            "lng": -121.991865
        },
        "address": "1320 El Paseo de Saratoga, San Jose, CA 95130, United States",
        "price_level": 1
    },
    {
        "name": "Panda Express",
        "location": {
            "lat": 37.416223,
            "lng": -121.955032
        },
        "address": "4180 North 1st Street, San Jose, CA 95134, United States",
        "price_level": 1
    },
    {
        "name": "Best Taste Sushi & Chinese Restaurant",
        "location": {
            "lat": 37.280881,
            "lng": -121.931113
        },
        "address": "2360 South Bascom Avenue, Campbell, CA 95008, United States"
    },
    {
        "name": "Panda Express",
        "location": {
            "lat": 37.434303,
            "lng": -121.900231
        },
        "address": "70 North Milpitas Boulevard, Milpitas, CA 95035, United States",
        "price_level": 1
    },
    {
        "name": "Mayflower Restaurant",
        "location": {
            "lat": 37.306033,
            "lng": -121.977584
        },
        "address": "1080 Saratoga Avenue #5, San Jose, CA 95129, United States",
        "price_level": 2
    },
    {
        "name": "Joe Chinese Fast Food",
        "location": {
            "lat": 37.409365,
            "lng": -121.97809
        },
        "address": "5350 Great America Parkway, Santa Clara, CA 95054, United States"
    },
    {
        "name": "Tropicana Buffet",
        "location": {
            "lat": 37.338298,
            "lng": -121.84243
        },
        "address": "1692 Story Road #100, San Jose, CA 95122, United States"
    },
    {
        "name": "China Chen Restaurant",
        "location": {
            "lat": 37.331048,
            "lng": -121.883577
        },
        "address": "400 South 3rd Street, San Jose, CA 95112, United States"
    },
    {
        "name": "Great Mall Mayflower Restaurant",
        "location": {
            "lat": 37.41411,
            "lng": -121.895157
        },
        "address": "222 Great Mall Drive, Milpitas, CA 95035, United States",
        "price_level": 2
    },
    {
        "name": "Tay Ho",
        "location": {
            "lat": 37.297788,
            "lng": -121.838337
        },
        "address": "2895 Senter Road, San Jose, CA 95111, United States"
    },
    {
        "name": "Panda Express",
        "location": {
            "lat": 37.396362,
            "lng": -121.974192
        },
        "address": "2401 Agnew Road #741-A, Santa Clara, CA 95054, United States",
        "price_level": 1
    },
    {
        "name": "King Noodle",
        "location": {
            "lat": 37.353679,
            "lng": -121.995116
        },
        "address": "3577 El Camino Real, Santa Clara, CA 95051, United States"
    },
    {
        "name": "McKee Orient Express",
        "location": {
            "lat": 37.357788,
            "lng": -121.862368
        },
        "address": "1657 McKee Road, San Jose, CA 95116, United States"
    },
    {
        "name": "Taste Good Beijing Cuisine",
        "location": {
            "lat": 37.429393,
            "lng": -121.907651
        },
        "address": "76 South Abel Street, Milpitas, CA 95035, United States"
    },
    {
        "name": "Egg Roll House",
        "location": {
            "lat": 37.244151,
            "lng": -121.960665
        },
        "address": "15495 Los Gatos Boulevard, Los Gatos, CA 95032, United States"
    },
    {
        "name": "Guan Dong House",
        "location": {
            "lat": 37.335848,
            "lng": -122.015145
        },
        "address": "10851 North Wolfe Road, Cupertino, CA 95014, United States"
    },
    {
        "name": "Tong Dumpling",
        "location": {
            "lat": 37.33562,
            "lng": -122.015258
        },
        "address": "10869 North Wolfe Road, Cupertino, CA 95014, United States"
    },
    {
        "name": "Wok Star - Express Asian Kitchen",
        "location": {
            "lat": 37.417449,
            "lng": -121.87211
        },
        "address": "1785-1787 Landess Avenue, Milpitas, CA 95035, United States"
    },
    {
        "name": "Fuji Huoshao & Dumpling",
        "location": {
            "lat": 37.308518,
            "lng": -122.01357
        },
        "address": "6184 Bollinger Road, San Jose, CA 95129, United States",
        "price_level": 2
    },
    {
        "name": "Taketomi",
        "location": {
            "lat": 37.413542,
            "lng": -121.876048
        },
        "address": "2145 Morrill Avenue, San Jose, CA 95132, United States"
    },
    {
        "name": "My Dumpling",
        "location": {
            "lat": 37.422852,
            "lng": -121.916736
        },
        "address": "300 Barber Court, Milpitas, CA 95035, United States"
    },
    {
        "name": "King Egg Rolls",
        "location": {
            "lat": 37.37368,
            "lng": -121.872066
        },
        "address": "980 Lundy Avenue, San Jose, CA 95133, United States",
        "price_level": 1
    },
    {
        "name": "Panda Express",
        "location": {
            "lat": 37.305198,
            "lng": -121.863354
        },
        "address": "2131 Monterey Road, San Jose, CA 95112, United States",
        "price_level": 1
    },
    {
        "name": "Sino Restaurant",
        "location": {
            "lat": 37.320083,
            "lng": -121.948453
        },
        "address": "377 Santana Row #1000, San Jose, CA 95128, United States",
        "price_level": 2
    },
    {
        "name": "Mr.Chau's Chinese Fast Food",
        "location": {
            "lat": 37.310235,
            "lng": -121.913266
        },
        "address": "910 Meridian Avenue, San Jose, CA 95126, United States"
    },
    {
        "name": "Golden Buddha Chinese Restaurant",
        "location": {
            "lat": 37.313352,
            "lng": -121.792573
        },
        "address": "2768 Aborn Road, San Jose, CA 95121, United States",
        "price_level": 1
    },
    {
        "name": "Mandarin Gourmet Restaurant",
        "location": {
            "lat": 37.252454,
            "lng": -121.858486
        },
        "address": "5560 Santa Teresa Boulevard, San Jose, CA 95123, United States",
        "price_level": 2
    },
    {
        "name": "Rose Gardens Chinese Rstrnt",
        "location": {
            "lat": 37.38864,
            "lng": -121.861412
        },
        "address": "1198 North Capitol Avenue, San Jose, CA 95132, United States"
    },
    {
        "name": "Golden Rice Bowl",
        "location": {
            "lat": 37.251794,
            "lng": -121.908982
        },
        "address": "1705 Branham Lane, San Jose, CA 95118, United States",
        "price_level": 1
    },
    {
        "name": "Hong Kong Saigon Sea Food Harbor",
        "location": {
            "lat": 37.397298,
            "lng": -121.997058
        },
        "address": "1135 Lawrence Expressway, Sunnyvale, CA 94089, United States",
        "price_level": 1
    },
    {
        "name": "Kim Tar Restaurant",
        "location": {
            "lat": 37.386951,
            "lng": -121.883508
        },
        "address": "1698 Hostetter Rd., Suite J, San Jose, CA 95131-3333, United States"
    },
    {
        "name": "Nha Trang Restaurant",
        "location": {
            "lat": 37.322926,
            "lng": -121.824092
        },
        "address": "1820 Tully Road, San Jose, CA 95122, United States",
        "price_level": 1
    },
    {
        "name": "Hand Pull Noodle House",
        "location": {
            "lat": 37.275115,
            "lng": -121.851567
        },
        "address": "505 West Capitol Expressway, San Jose, CA 95138, United States"
    },
    {
        "name": "Chef P's Restaurant",
        "location": {
            "lat": 37.416867,
            "lng": -121.876514
        },
        "address": "1535 Landess Avenue #162, Milpitas, CA 95035, United States"
    },
    {
        "name": "New Hwongkok Inc",
        "location": {
            "lat": 37.323298,
            "lng": -121.795702
        },
        "address": "2854 South White Road, San Jose, CA 95148, United States"
    },
    {
        "name": "Top Cafe",
        "location": {
            "lat": 37.419546,
            "lng": -121.916065
        },
        "address": "650 Barber Lane, Milpitas, CA 95035, United States"
    },
    {
        "name": "Pearl River Chinese Restaurant",
        "location": {
            "lat": 37.288709,
            "lng": -121.887532
        },
        "address": "2281 Lincoln Avenue, San Jose, CA 95125, United States"
    },
    {
        "name": "Straits Restaurant",
        "location": {
            "lat": 37.321736,
            "lng": -121.948215
        },
        "address": "333 Santana Row, San Jose, CA 95128, United States",
        "price_level": 2
    },
    {
        "name": "Panda Express",
        "location": {
            "lat": 37.300026,
            "lng": -121.77155
        },
        "address": "4898 San Felipe Road #140, San Jose, CA 95135, United States",
        "price_level": 1
    },
    {
        "name": "Panda Express",
        "location": {
            "lat": 37.267057,
            "lng": -121.832294
        },
        "address": "171 Branham Lane #7, San Jose, CA 95136, United States",
        "price_level": 1
    },
    {
        "name": "Ma's Restaurant",
        "location": {
            "lat": 37.387818,
            "lng": -121.887725
        },
        "address": "1715 Lundy Avenue, San Jose, CA 95131, United States",
        "price_level": 2
    },
    {
        "name": "Mahalo Hawaii BBQ & Chinese Food",
        "location": {
            "lat": 37.261357,
            "lng": -121.875662
        },
        "address": "4750 Almaden Expressway, San Jose, CA 95118, United States",
        "price_level": 1
    },
    {
        "name": "Milpitas Buffet",
        "location": {
            "lat": 37.428017,
            "lng": -121.913231
        },
        "address": "24 South Abbott Avenue, Milpitas, CA 95035, United States"
    },
    {
        "name": "Ko Sing Chinese Restaurant",
        "location": {
            "lat": 37.315402,
            "lng": -121.79338
        },
        "address": "3245 South White Road, San Jose, CA 95148, United States"
    },
    {
        "name": "Taste of China",
        "location": {
            "lat": 37.252271,
            "lng": -121.90726
        },
        "address": "1659 Branham Lane, San Jose, CA 95118, United States",
        "price_level": 1
    },
    {
        "name": "Chef Li",
        "location": {
            "lat": 37.262094,
            "lng": -121.933295
        },
        "address": "2033 Camden Avenue, San Jose, CA 95124, United States",
        "price_level": 2
    },
    {
        "name": "Double Golden Chinese Restaurant",
        "location": {
            "lat": 37.258507,
            "lng": -121.785131
        },
        "address": "5968 Silver Creek Valley Road, San Jose, CA 95138, United States"
    },
    {
        "name": "Mimi's Chinese Kitchen",
        "location": {
            "lat": 37.260584,
            "lng": -121.808366
        },
        "address": "5278 Monterey Highway, San Jose, CA 95111, United States"
    },
    {
        "name": "Chao Chi Chinese Food",
        "location": {
            "lat": 37.397033,
            "lng": -121.873881
        },
        "address": "1657 North Capitol Avenue, San Jose, CA 95132, United States"
    },
    {
        "name": "Wok Creekside Chinese Restaurant",
        "location": {
            "lat": 37.39189,
            "lng": -121.842225
        },
        "address": "1030 Piedmont Road, San Jose, CA 95132, United States"
    },
    {
        "name": "Kim Wok",
        "location": {
            "lat": 37.304848,
            "lng": -121.921279
        },
        "address": "1060 Leigh Avenue, San Jose, CA 95126, United States"
    },
    {
        "name": "Mayflower",
        "location": {
            "lat": 37.421616,
            "lng": -121.916369
        },
        "address": "428 Barber Lane, Milpitas, CA 95035, United States",
        "price_level": 2
    },
    {
        "name": "Hong Kong Kitchen",
        "location": {
            "lat": 37.259852,
            "lng": -121.807718
        },
        "address": "5316 Monterey Street, San Jose, CA 95111, United States",
        "price_level": 1
    },
    {
        "name": "Peking House Restaurant",
        "location": {
            "lat": 37.33506,
            "lng": -121.89077
        },
        "address": "45 Post Street, San Jose, CA 95113, United States",
        "price_level": 2
    },
    {
        "name": "Pagoda House",
        "location": {
            "lat": 37.314344,
            "lng": -121.876541
        },
        "address": "148 West Alma Avenue # A, San Jose, CA 95110-3634, United States"
    },
    {
        "name": "Magic Wok",
        "location": {
            "lat": 37.366085,
            "lng": -122.013179
        },
        "address": "734 South Wolfe Road, Sunnyvale, CA 94086, United States",
        "price_level": 1
    },
    {
        "name": "Southland Flavor Cafe",
        "location": {
            "lat": 37.335422,
            "lng": -122.015368
        },
        "address": "10825 North Wolfe Road, Cupertino, CA 95014, United States",
        "price_level": 1
    },
    {
        "name": "Asia Gourmet",
        "location": {
            "lat": 37.419281,
            "lng": -121.916357
        },
        "address": "662 Barber Lane, Milpitas, CA 95035, United States"
    },
    {
        "name": "Wu Ji's Mala House",
        "location": {
            "lat": 37.387676,
            "lng": -121.887836
        },
        "address": "1715 Lundy Avenue, San Jose, CA 95131, United States"
    },
    {
        "name": "Soong Soong Chinese Restaurant",
        "location": {
            "lat": 37.322539,
            "lng": -121.965452
        },
        "address": "Suite C, 3680 Stevens Creek Blvd, San Jose, CA 95117, United States",
        "price_level": 2
    },
    {
        "name": "Chef Young's",
        "location": {
            "lat": 37.388643,
            "lng": -122.029934
        },
        "address": "494 North Mathilda Avenue, Sunnyvale, CA 94085, United States"
    },
    {
        "name": "Wong Kok Restaurant",
        "location": {
            "lat": 37.370888,
            "lng": -121.916935
        },
        "address": "1751 North 1st Street, San Jose, CA 95112, United States"
    },
    {
        "name": "Chili Garden",
        "location": {
            "lat": 37.423443,
            "lng": -121.918519
        },
        "address": "210 Barber Court, Milpitas, CA 95035, United States",
        "price_level": 2
    },
    {
        "name": "Liang's Kitchen",
        "location": {
            "lat": 37.421993,
            "lng": -121.916501
        },
        "address": "Milpitas, CA 95035, United States"
    },
    {
        "name": "Com Tam Thien Huong",
        "location": {
            "lat": 37.308263,
            "lng": -121.848808
        },
        "address": "2377 Senter Road, San Jose, CA 95112, United States"
    },
    {
        "name": "Evergreen Panda Restaurant",
        "location": {
            "lat": 37.315192,
            "lng": -121.790146
        },
        "address": "3230 South White Road, San Jose, CA 95148, United States"
    },
    {
        "name": "QQ Noodle",
        "location": {
            "lat": 37.310078,
            "lng": -122.023286
        },
        "address": "10889 South Blaney Avenue, Cupertino, CA 95014, United States"
    },
    {
        "name": "Panda Express",
        "location": {
            "lat": 37.269883,
            "lng": -121.905788
        },
        "address": "3029 Meridian Avenue, San Jose, CA 95124, United States",
        "price_level": 1
    },
    {
        "name": "P.F. Chang's",
        "location": {
            "lat": 37.251203,
            "lng": -121.864128
        },
        "address": "925 Blossom Hill Road #1515, San Jose, CA 95123, United States",
        "price_level": 2
    },
    {
        "name": "Panda Express",
        "location": {
            "lat": 37.326396,
            "lng": -121.944147
        },
        "address": "2855 Stevens Creek Boulevard, Santa Clara, CA 95050, United States",
        "price_level": 1
    },
    {
        "name": "Union Chinese Restaurant",
        "location": {
            "lat": 37.274144,
            "lng": -121.933862
        },
        "address": "2615 Union Avenue, San Jose, CA 95124, United States",
        "price_level": 2
    },
    {
        "name": "China Stix Restaurant",
        "location": {
            "lat": 37.350627,
            "lng": -121.963186
        },
        "address": "2110 El Camino Real, Santa Clara, CA 95050, United States",
        "price_level": 2
    },
    {
        "name": "East Lake Chinese Seafood",
        "location": {
            "lat": 37.324418,
            "lng": -121.798395
        },
        "address": "2850 Quimby Road, San Jose, CA 95148, United States"
    },
    {
        "name": "Tsing Tao Chinese Restaurant",
        "location": {
            "lat": 37.287214,
            "lng": -121.975026
        },
        "address": "104 North San Tomas Aquino Road, Campbell, CA 95008, United States",
        "price_level": 2
    },
    {
        "name": "China Rose",
        "location": {
            "lat": 37.447798,
            "lng": -121.90251
        },
        "address": "387 Jacklin Road, Milpitas, CA 95035, United States"
    },
    {
        "name": "Yan Can Asian Bistro",
        "location": {
            "lat": 37.394649,
            "lng": -121.945473
        },
        "address": "3927 Rivermark Plaza, Santa Clara, CA 95054, United States",
        "price_level": 2
    },
    {
        "name": "Luu New Tung Kee Noodle",
        "location": {
            "lat": 37.433506,
            "lng": -121.897641
        },
        "address": "481 East Calaveras Boulevard, Milpitas, CA 95035, United States"
    },
    {
        "name": "Liou's House",
        "location": {
            "lat": 37.448168,
            "lng": -121.888321
        },
        "address": "1245 Jacklin Road, Milpitas, CA 95035, United States",
        "price_level": 2
    },
    {
        "name": "New China Station BBQ",
        "location": {
            "lat": 37.321149,
            "lng": -121.823743
        },
        "address": "1710 Tully Road, San Jose, CA 95122, United States"
    },
    {
        "name": "Asiana Garden - Chinese Seafood Restaurant",
        "location": {
            "lat": 37.40812,
            "lng": -121.88869
        },
        "address": "775 East Capitol Avenue, Milpitas, CA 95035, United States"
    },
    {
        "name": "House of Egg Roll",
        "location": {
            "lat": 37.356554,
            "lng": -121.947064
        },
        "address": "1686 Lafayette Street, Santa Clara, CA 95050, United States"
    },
    {
        "name": "Shanghai Restaurant",
        "location": {
            "lat": 37.335532,
            "lng": -122.01513
        },
        "address": "10877 North Wolfe Road, Cupertino, CA 95014, United States"
    },
    {
        "name": "Dragon Gate BBQ",
        "location": {
            "lat": 37.423759,
            "lng": -121.919127
        },
        "address": "228 Barber Court, Milpitas, CA 95035, United States"
    },
    {
        "name": "Mr. Chau's",
        "location": {
            "lat": 37.352935,
            "lng": -121.962213
        },
        "address": "2165 El Camino Real, Santa Clara, CA 95050, United States"
    },
    {
        "name": "Shao Mountain",
        "location": {
            "lat": 37.308887,
            "lng": -121.993901
        },
        "address": "5152 Moorpark Avenue Ste 30, San Jose, CA 95129, United States"
    },
    {
        "name": "Golden Garlic",
        "location": {
            "lat": 37.415282,
            "lng": -121.875948
        },
        "address": "3082 Landess Avenue, San Jose, CA 95132, United States"
    },
    {
        "name": "China Wok Restaurant",
        "location": {
            "lat": 37.335665,
            "lng": -121.892569
        },
        "address": "9 North Market Street, San Jose, CA 95113, United States",
        "price_level": 2
    },
    {
        "name": "Joy Luck Palace",
        "location": {
            "lat": 37.335991,
            "lng": -122.015678
        },
        "address": "10911 North Wolfe Road, Cupertino, CA 95014, United States",
        "price_level": 2
    },
    {
        "name": "Little Hunan",
        "location": {
            "lat": 37.27536,
            "lng": -121.923258
        },
        "address": "1882 Curtner Avenue, San Jose, CA 95124, United States",
        "price_level": 1
    },
    {
        "name": "Royal Garden Chinese Restaurant",
        "location": {
            "lat": 37.380002,
            "lng": -121.941193
        },
        "address": "3170 De La Cruz Boulevard, Santa Clara, CA 95054, United States",
        "price_level": 2
    },
    {
        "name": "Pearl River Restaurant",
        "location": {
            "lat": 37.250761,
            "lng": -121.828665
        },
        "address": "414 Blossom Hill Road, San Jose, CA 95123, United States",
        "price_level": 1
    },
    {
        "name": "China China Restaurant & Buffet",
        "location": {
            "lat": 37.352103,
            "lng": -121.972877
        },
        "address": "2570 El Camino Real, Santa Clara, CA 95051, United States",
        "price_level": 1
    },
    {
        "name": "Koong's",
        "location": {
            "lat": 37.434507,
            "lng": -121.902256
        },
        "address": "103 North Milpitas Boulevard, Milpitas, CA 95035, United States"
    },
    {
        "name": "K K Chinese Restaurant",
        "location": {
            "lat": 37.375696,
            "lng": -121.836405
        },
        "address": "3095 McKee Road, San Jose, CA 95127, United States",
        "price_level": 2
    },
    {
        "name": "Flourishing Garden Restaurant",
        "location": {
            "lat": 37.312804,
            "lng": -121.869585
        },
        "address": "1650 Monterey Highway, San Jose, CA 95112, United States"
    },
    {
        "name": "South Legend Szechuan Cuisine",
        "location": {
            "lat": 37.456102,
            "lng": -121.910125
        },
        "address": "1720 North Milpitas Boulevard, Milpitas, CA 95035, United States"
    },
    {
        "name": "Shanghai Garden",
        "location": {
            "lat": 37.387046,
            "lng": -121.88748
        },
        "address": "1701 Lundy Avenue, San Jose, CA 95131, United States"
    },
    {
        "name": "New Hwong Kok",
        "location": {
            "lat": 37.455068,
            "lng": -121.911658
        },
        "address": "1705 North Milpitas Boulevard, Milpitas, CA 95035, United States",
        "price_level": 1
    },
    {
        "name": "Min Min Pot",
        "location": {
            "lat": 37.318905,
            "lng": -121.974514
        },
        "address": "489 Saratoga Avenue, San Jose, CA 95129, United States"
    },
    {
        "name": "Banh Thai Restaurant",
        "location": {
            "lat": 37.454942,
            "lng": -121.915817
        },
        "address": "1818 Milmont Drive, Milpitas, CA 95035, United States"
    },
    {
        "name": "Panda Express",
        "location": {
            "lat": 37.322733,
            "lng": -121.994148
        },
        "address": "5180 Stevens Creek Boulevard, San Jose, CA 95129, United States",
        "price_level": 1
    },
    {
        "name": "Panda Express",
        "location": {
            "lat": 37.355382,
            "lng": -122.018174
        },
        "address": "798 East El Camino Real, Sunnyvale, CA 94087, United States",
        "price_level": 1
    },
    {
        "name": "Panda Express",
        "location": {
            "lat": 37.383086,
            "lng": -121.894498
        },
        "address": "1704 Oakland Road, San Jose, CA 95131, United States",
        "price_level": 1
    },
    {
        "name": "Panda Express",
        "location": {
            "lat": 37.336504,
            "lng": -121.880522
        },
        "address": "1 Washington Square, San Jose, CA 95192, United States",
        "price_level": 1
    },
    {
        "name": "Panda Express",
        "location": {
            "lat": 37.371038,
            "lng": -121.844749
        },
        "address": "361 North Capitol Avenue, San Jose, CA 95133, United States",
        "price_level": 1
    },
    {
        "name": "Jade Cathay Chinese Restaurant",
        "location": {
            "lat": 37.360526,
            "lng": -121.909116
        },
        "address": "1339 North 1st Street, San Jose, CA 95110, United States"
    },
    {
        "name": "Little Sheep Mongolian Hot Pot",
        "location": {
            "lat": 37.322582,
            "lng": -122.005919
        },
        "address": "19062 Stevens Creek Boulevard, Cupertino, CA 95014, United States",
        "price_level": 2
    },
    {
        "name": "China Taste",
        "location": {
            "lat": 37.398242,
            "lng": -121.923905
        },
        "address": "670 River Oaks Parkway, San Jose, CA 95134, United States"
    },
    {
        "name": "China Inn",
        "location": {
            "lat": 37.332951,
            "lng": -121.914096
        },
        "address": "1401 The Alameda, San Jose, CA 95126, United States"
    },
    {
        "name": "Golden Crown Restaurant",
        "location": {
            "lat": 37.323397,
            "lng": -121.981816
        },
        "address": "4537 Stevens Creek Boulevard, Santa Clara, CA 95051, United States",
        "price_level": 1
    },
    {
        "name": "My Happy Kitchen",
        "location": {
            "lat": 37.261175,
            "lng": -121.931915
        },
        "address": "3617 Union Avenue, San Jose, CA 95124, United States",
        "price_level": 1
    },
    {
        "name": "Jade China Restaurant",
        "location": {
            "lat": 37.254698,
            "lng": -121.798104
        },
        "address": "5522 Monterey Street, San Jose, CA 95138, United States"
    },
    {
        "name": "Nutrition Restaurant Inc",
        "location": {
            "lat": 37.335959,
            "lng": -122.014932
        },
        "address": "10935 North Wolfe Road, Cupertino, CA 95014, United States",
        "price_level": 2
    },
    {
        "name": "Lock Chun Restaurant",
        "location": {
            "lat": 37.323774,
            "lng": -121.981112
        },
        "address": "4495 Stevens Creek Boulevard, Santa Clara, CA 95051, United States",
        "price_level": 2
    },
    {
        "name": "E Tea Cafe",
        "location": {
            "lat": 37.423163,
            "lng": -121.918692
        },
        "address": "290 Barber Court, Milpitas, CA 95035, United States"
    },
    {
        "name": "President Restaurant",
        "location": {
            "lat": 37.274175,
            "lng": -121.880574
        },
        "address": "1190 Hillsdale Avenue #100, San Jose, CA 95118, United States"
    },
    {
        "name": "L'Amour Tempura Yen",
        "location": {
            "lat": 37.322077,
            "lng": -121.823769
        },
        "address": "1818 Tully Road, San Jose, CA 95122, United States"
    },
    {
        "name": "Lung Lung BBQ",
        "location": {
            "lat": 37.456731,
            "lng": -121.910348
        },
        "address": "1828 North Milpitas Boulevard, Milpitas, CA 95035, United States"
    }
]